[
    {
        "name": "Upper Caples Hut",
	"place": "Greenstone and Caples Conservation Areas",
	"region": "Otago",
	"island": "South Island",
	"lng": 168.22219,
	"lat": -44.84395,
	"staticLink": "https://tramper.nz/2370/upper-caples-hut-closed-/"
    },
    {
        "name": "Robin Saddle Hut",
	"place": "Fiordland National Park",
	"region": "Fiordland",
	"island": "South Island",
	"lng": 167.36499,
	"lat": -45.19622,
	"staticLink": "https://tramper.nz/16884/robin-saddle-hut/"
    },
    {
        "name": "Lyell Saddle Hut",
	"place": "Lyell area",
	"region": "West Coast",
	"island": "South Island",
	"lng": 172.0992620789648,
	"lat": -41.72383831440516,
	"staticLink": "https://oldghostroad.org.nz/hut-information-3/"
    },
    {
        "name": "Ghost Lake Hut",
	"place": "Lyell area",
	"region": "West Coast",
	"island": "South Island",
	"lng": 172.15907352684346,
	"lat": -41.69998169633349,
	"staticLink": "https://oldghostroad.org.nz/hut-information-3/"
    },
    {
        "name": "Stern Valley Hut",
	"place": "Mokihinui River area",
	"region": "West Coast",
	"island": "South Island",
	"lng": 172.1988603850838,
	"lat": -41.66363422620998,
	"staticLink": "https://oldghostroad.org.nz/hut-information-3/"
    },
    {
        "name": "Specimen Point Hut",
	"place": "Mokihinui River area",
	"region": "West Coast",
	"island": "South Island",
	"lng": 172.1522164483528,
	"lat": -41.54470219386695,
	"staticLink": "https://oldghostroad.org.nz/hut-information-3/"
    },
    {
        "name": "Lake Howden Hut",
	"place": "Lake Howden Hut",
	"region": "Fiordland",
	"island": "South Island",
	"lng": 168.13546660090884,
	"lat": -44.81570255101548,
	"staticLink": "https://www.doc.govt.nz/parks-and-recreation/places-to-go/fiordland/places/fiordland-national-park/things-to-do/huts/lake-howden-hut-closed/"
    },
    {
        "name": "Lewis Hut",
	"place": "Kahurangi National Park",
	"region": "Nelson/Tasman",
	"island": "South Island",
	"lng": 172.14791346827298,
	"lat": -40.94009881588973,
	"staticLink": "https://www.doc.govt.nz/parks-and-recreation/places-to-go/nelson-tasman/places/kahurangi-national-park/things-to-do/huts/lewis-shelter/"
    },
    {
        "name": "Beetham Hut",
	"place": "Aoraki/Mount Cook National Park",
	"region": "Canterbury",
	"island": "South Island",
	"lng": 170.248973,
	"lat": -43.567075,
	"staticLink": "https://www.doc.govt.nz/parks-and-recreation/places-to-go/canterbury/places/aoraki-mount-cook-national-park/things-to-do/huts/beetham-hut/"
    },
    {
        "name": "Murchison Hut",
	"place": "Aoraki/Mount Cook National Park",
	"region": "Canterbury",
	"island": "South Island",
	"lng": 170.394557,
	"lat": -43.518744,
	"staticLink": "https://www.doc.govt.nz/parks-and-recreation/places-to-go/canterbury/places/aoraki-mount-cook-national-park/things-to-do/huts/murchison-hut/"
    },
    {
        "name": "Richmond Hut (historic)",
	"place": "Te Kahui Kaupeka Conservation Park",
	"region": "Canterbury",
	"island": "South Island",
	"lng": 170.723759,
	"lat": -43.744206,
	"staticLink": "https://hutbagger.co.nz/huts/historic-richmond-shelter"
    },
    {
        "name": "Lake Emma Hut (historic)",
	"place": "Hakatere Conservation Park",
	"region": "Canterbury",
	"island": "South Island",
	"lng": 171.103464,
	"lat": -43.642690,
	"staticLink": "https://hutbagger.co.nz/huts/emma-hut-historic"
    },
    {
        "name": "Hamilton Hut - Waimakariri River Gorge",
	"place": "Oxford Forest Conservation Area",
	"region": "Canterbury",
	"island": "South Island",
	"lng": 171.966751,
	"lat": -43.118264,
	"staticLink": "https://hutbagger.co.nz/huts/waimak-gorge-hamilton-hut"
    },
    {
        "name": "Walker Hut - Waimakariri River Gorge",
	"place": "Oxford Forest Conservation Area",
	"region": "Canterbury",
	"island": "South Island",
	"lng": 171.951528,
	"lat": -43.19413,
	"staticLink": "https://hutbagger.co.nz/huts/waimak-gorge-walker-hut"
    }
]
